City,Latitude,Longitude,Maximum Temperature (F),Humidity,Cloudiness,Wind Speed,Country,Date and Time
Sobolevo,54.4299,31.8996,42.96,70,12,5.73,RU,2022-05-22 19:21:36
Ribeira Grande,38.5167,-28.7,64.8,100,75,2.3,PT,2022-05-22 19:21:37
Amahai,-3.3333,128.9167,77.83,87,99,1.9,ID,2022-05-22 19:21:37
Nanortalik,60.1432,-45.2371,37.51,98,100,6.85,GL,2022-05-22 19:21:37
Kenitra,34.261,-6.5802,68.76,77,48,7.49,MA,2022-05-22 19:20:17
Los Llanos de Aridane,28.6585,-17.9182,67.75,76,75,16.11,ES,2022-05-22 19:21:38
Caravelas,-17.7125,-39.2481,74.57,66,2,6.96,BR,2022-05-22 19:21:38
Sitka,57.0531,-135.33,49.89,81,100,8.05,US,2022-05-22 19:19:35
Carnarvon,-24.8667,113.6333,70.86,57,33,18.01,AU,2022-05-22 19:21:39
Lebu,-37.6167,-73.65,52.27,87,100,11.05,CL,2022-05-22 19:19:52
Rosetta,31.4044,30.4164,68.59,83,0,15.93,EG,2022-05-22 19:21:39
Rikitea,-23.1203,-134.9692,75.85,76,2,13.69,PF,2022-05-22 19:21:33
Setermoen,68.861,18.3486,53.56,100,100,3.56,NO,2022-05-22 19:21:40
Voh,-20.9667,164.7,72.73,91,2,5.06,NC,2022-05-22 19:21:40
Albany,42.6001,-73.9662,90.91,49,86,1.01,US,2022-05-22 19:12:03
Barrow,71.2906,-156.7887,21.22,93,100,9.22,US,2022-05-22 19:20:01
Bluff,-46.6,168.3333,50.31,73,100,24.79,NZ,2022-05-22 19:21:41
Rawson,-43.3002,-65.1023,48.7,83,100,19.24,AR,2022-05-22 19:21:41
Sorong,-0.8833,131.25,77.67,78,100,3.91,ID,2022-05-22 19:21:41
Berlevåg,70.8578,29.0864,40.95,81,75,6.91,NO,2022-05-22 19:21:42
Vaini,-21.2,-175.2,75.36,94,40,4.61,TO,2022-05-22 19:21:42
Kahului,20.8947,-156.47,82.42,51,40,14.0,US,2022-05-22 19:17:38
Touros,-5.1989,-35.4608,79.3,85,24,13.62,BR,2022-05-22 19:21:43
Jasper,37.2001,-94.3502,65.01,48,100,8.05,US,2022-05-22 19:19:50
Yellowknife,62.456,-114.3525,37.92,75,100,8.05,CA,2022-05-22 19:20:03
Grand Gaube,-20.0064,57.6608,75.6,76,7,3.0,MU,2022-05-22 19:21:43
Codrington,-38.2667,141.9667,43.59,95,4,7.72,AU,2022-05-22 19:21:34
Cabo San Lucas,22.8909,-109.9124,84.61,44,0,3.44,MX,2022-05-22 19:20:09
Cidreira,-30.1811,-50.2056,62.58,66,100,4.29,BR,2022-05-22 19:21:44
Nicoya,10.1483,-85.452,88.05,60,86,4.97,CR,2022-05-22 19:21:44
Kaitangata,-46.2817,169.8464,46.53,84,83,13.11,NZ,2022-05-22 19:21:45
Tasiilaq,65.6145,-37.6368,33.96,97,100,8.03,GL,2022-05-22 19:21:45
Punta Arenas,-53.15,-70.9167,41.11,65,75,11.5,CL,2022-05-22 19:20:00
Garhwa,24.1833,83.8167,82.87,42,2,3.91,IN,2022-05-22 19:21:46
Qaanaaq,77.484,-69.3632,25.36,77,100,2.71,GL,2022-05-22 19:16:52
Atuona,-9.8,-139.0333,77.34,81,31,17.4,PF,2022-05-22 19:21:46
Pisco,-13.7,-76.2167,67.01,77,75,11.5,PE,2022-05-22 19:21:47
Hobart,-42.8794,147.3294,50.25,85,100,10.36,AU,2022-05-22 19:20:40
Sillanwali,31.8261,72.5398,95.63,11,51,15.08,PK,2022-05-22 19:21:47
Chokurdakh,70.6333,147.9167,32.68,100,100,3.36,RU,2022-05-22 19:21:48
Dunedin,-45.8742,170.5036,47.8,66,67,3.0,NZ,2022-05-22 19:21:48
New Norfolk,-42.7826,147.0587,49.91,84,74,2.37,AU,2022-05-22 19:21:48
Ushuaia,-54.8,-68.3,40.62,81,20,5.75,AR,2022-05-22 19:21:02
Santa Maria,-29.6842,-53.8069,67.3,56,0,3.44,BR,2022-05-22 19:19:06
Pringsewu,-5.3582,104.9744,73.11,96,76,1.39,ID,2022-05-22 19:21:49
Tacuarembó,-31.7333,-55.9833,64.94,60,0,3.78,UY,2022-05-22 19:21:49
Mataura,-46.1927,168.8643,44.33,91,100,7.65,NZ,2022-05-22 19:21:50
Ormond Beach,29.2858,-81.0559,95.16,71,40,13.8,US,2022-05-22 19:18:51
Oistins,13.0667,-59.5333,84.29,70,40,18.41,BB,2022-05-22 19:21:50
Mahébourg,-20.4081,57.7,75.49,64,40,10.36,MU,2022-05-22 19:21:51
Zhigansk,66.7697,123.3711,36.52,76,100,5.12,RU,2022-05-22 19:21:51
Half Moon Bay,37.4636,-122.4286,80.82,55,20,14.97,US,2022-05-22 19:17:47
Fort Smith,35.3859,-94.3986,61.38,72,100,6.91,US,2022-05-22 19:21:51
Avarua,-21.2078,-159.775,78.85,89,75,13.8,CK,2022-05-22 19:21:52
Nabire,-3.3667,135.4833,74.97,91,58,3.29,ID,2022-05-22 19:21:52
Camaná,-16.6228,-72.7111,69.13,73,76,9.82,PE,2022-05-22 19:21:52
Great Falls,47.5002,-111.3008,57.67,35,0,6.91,US,2022-05-22 19:21:48
Luino,46.0019,8.7451,77.38,85,75,6.91,IT,2022-05-22 19:21:53
Chifeng,42.2683,118.9636,66.78,48,100,5.08,CN,2022-05-22 19:21:53
Tuktoyaktuk,69.4541,-133.0374,23.0,74,100,9.22,CA,2022-05-22 19:19:32
Upernavik,72.7868,-56.1549,32.61,100,100,6.2,GL,2022-05-22 19:21:54
Makakilo City,21.3469,-158.0858,78.69,65,100,11.5,US,2022-05-22 19:21:45
Kavieng,-2.5744,150.7967,82.67,67,14,17.22,PG,2022-05-22 19:21:54
Ahipara,-35.1667,173.1667,58.89,75,100,10.22,NZ,2022-05-22 19:21:55
Paramonga,-10.6667,-77.8333,68.9,74,15,7.81,PE,2022-05-22 19:21:55
Carutapera,-1.195,-46.02,80.8,87,29,4.88,BR,2022-05-22 19:21:55
Nha Trang,12.25,109.1833,80.6,85,100,4.7,VN,2022-05-22 19:21:56
Comodoro Rivadavia,-45.8667,-67.5,49.86,40,20,16.11,AR,2022-05-22 19:21:57
Murgab,37.4966,61.9714,62.47,59,0,6.91,TM,2022-05-22 19:21:58
Cape Town,-33.9258,18.4232,59.41,86,0,3.44,ZA,2022-05-22 19:20:22
Mindelo,16.8901,-24.9804,74.75,64,20,21.85,CV,2022-05-22 19:21:59
Norman Wells,65.282,-126.8329,44.64,49,75,5.75,CA,2022-05-22 19:21:59
Kapaa,22.0752,-159.319,78.78,83,100,12.66,US,2022-05-22 19:22:00
Margate,51.3813,1.3862,64.31,72,100,1.99,GB,2022-05-22 19:22:00
Mar del Plata,-38.0023,-57.5575,62.62,58,0,6.91,AR,2022-05-22 19:22:00
West Bay,19.3667,-81.4167,87.01,76,20,10.36,KY,2022-05-22 19:20:13
Grindavik,63.8424,-22.4338,55.35,66,0,20.71,IS,2022-05-22 19:22:01
Manokwari,-0.8667,134.0833,78.26,73,86,3.91,ID,2022-05-22 19:22:01
Vao,-22.6667,167.4833,74.88,86,100,9.66,NC,2022-05-22 19:22:01
Piranshahr,36.701,45.1413,60.35,42,59,3.87,IR,2022-05-22 19:22:02
Camocim,-2.9022,-40.8411,80.76,83,27,4.59,BR,2022-05-22 19:22:02
Busselton,-33.65,115.3333,61.27,67,65,23.49,AU,2022-05-22 19:22:03
Saint-Philippe,-21.3585,55.7679,71.19,76,38,11.23,RE,2022-05-22 19:22:03
Muros,42.7762,-9.0603,63.09,92,76,8.84,ES,2022-05-22 19:22:03
Jamestown,42.097,-79.2353,57.52,95,100,8.05,US,2022-05-22 19:22:04
Port-Gentil,-0.7193,8.7815,78.76,83,75,8.05,GA,2022-05-22 19:22:04
Iqaluit,63.7506,-68.5145,26.33,86,100,25.32,CA,2022-05-22 19:17:28
La Ronge,55.1001,-105.2842,64.65,14,75,14.97,CA,2022-05-22 19:22:04
Souillac,-20.5167,57.5167,75.58,64,40,10.36,MU,2022-05-22 19:22:05
Quatre Cocos,-20.2078,57.7625,75.31,70,25,15.64,MU,2022-05-22 19:22:05
Lompoc,34.6391,-120.4579,77.68,65,0,16.11,US,2022-05-22 19:22:06
Severo-Kuril'sk,50.6789,156.125,40.86,96,100,15.37,RU,2022-05-22 19:22:06
Hilo,19.7297,-155.09,87.28,65,40,6.91,US,2022-05-22 19:22:06
Shar,49.5886,81.0453,59.31,48,100,14.54,KZ,2022-05-22 19:22:07
Zhigalovo,54.8097,105.1578,45.05,85,100,0.54,RU,2022-05-22 19:22:07
Sechura,-5.5569,-80.8222,78.93,57,3,13.62,PE,2022-05-22 19:22:07
Port Alfred,-33.5906,26.891,60.37,79,60,4.07,ZA,2022-05-22 19:18:19
Tsumeb,-19.2333,17.7167,56.05,33,0,7.43,NA,2022-05-22 19:22:08
Cayenne,4.9333,-52.3333,80.1,1,75,4.61,GF,2022-05-22 19:22:09
Nazas,25.2333,-104.1333,93.38,14,0,11.18,MX,2022-05-22 19:22:09
Saskylakh,71.9167,114.0833,33.96,99,100,6.42,RU,2022-05-22 19:22:09
Holme,56.1138,10.1725,58.57,72,100,2.64,DK,2022-05-22 19:22:10
Susanville,40.4163,-120.653,68.67,27,0,8.05,US,2022-05-22 19:22:10
Constitución,-35.3333,-72.4167,53.94,86,100,9.53,CL,2022-05-22 19:22:11
Klaksvík,62.2266,-6.589,49.12,89,53,3.78,FO,2022-05-22 19:22:11
Herat Province,34.5,62.0,56.64,40,0,8.28,AF,2022-05-22 19:22:11
Kontagora,10.3999,5.4695,84.61,53,100,4.27,NG,2022-05-22 19:22:12
Koslan,63.4564,48.8989,30.94,93,100,12.21,RU,2022-05-22 19:22:12
Grøa,62.65,8.7167,57.56,64,100,3.56,NO,2022-05-22 19:22:12
São Filipe,14.8961,-24.4956,72.28,78,6,13.89,CV,2022-05-22 19:22:13
Kuusamo,65.9667,29.1833,39.24,93,100,8.05,FI,2022-05-22 19:22:13
Tautira,-17.7333,-149.15,79.23,74,26,14.63,PF,2022-05-22 19:22:14
Xichang,27.8964,102.2634,62.71,81,99,1.81,CN,2022-05-22 19:22:14
Hermanus,-34.4187,19.2345,60.31,85,69,7.63,ZA,2022-05-22 19:22:14
Fortuna,40.5982,-124.1573,62.85,80,75,9.22,US,2022-05-22 19:22:15
Port Elizabeth,-33.918,25.5701,56.1,88,0,2.3,ZA,2022-05-22 19:22:15
Esperance,-33.8667,121.9,63.0,74,24,10.92,AU,2022-05-22 19:22:15
Saint Paul Harbor,57.79,-152.4072,51.31,76,75,12.66,US,2022-05-22 19:21:37
Pemba,-12.974,40.5178,79.5,83,20,6.91,MZ,2022-05-22 19:22:16
Castro,-24.7911,-50.0119,64.49,51,4,5.06,BR,2022-05-22 19:22:16
Dikson,73.5069,80.5464,21.96,92,76,8.61,RU,2022-05-22 19:22:17
Opuwo,-18.0607,13.84,60.51,19,2,7.14,NA,2022-05-22 19:22:17
San Francisco,37.7749,-122.4194,85.51,61,20,14.97,US,2022-05-22 19:18:37
Krasnyy Chikoy,50.3643,108.7512,50.79,74,100,1.12,RU,2022-05-22 19:22:18
Azatavan,39.9832,44.5053,75.4,34,6,1.34,AM,2022-05-22 19:22:18
Olinda,-8.0089,-34.8553,82.13,74,75,20.71,BR,2022-05-22 19:22:19
Kerrobert,51.9168,-109.1348,59.05,24,22,14.65,CA,2022-05-22 19:22:19
Nome,64.5011,-165.4064,64.47,20,0,16.11,US,2022-05-22 19:22:20
George Town,5.4112,100.3354,82.33,92,20,2.3,MY,2022-05-22 19:20:04
Bredasdorp,-34.5322,20.0403,56.37,90,38,5.41,ZA,2022-05-22 19:22:21
Punta de Bombón,-17.1717,-71.7931,67.23,74,48,8.68,PE,2022-05-22 19:22:21
Alta Floresta,-9.8756,-56.0861,91.22,29,0,4.61,BR,2022-05-22 19:22:22
Hobyo,5.3505,48.5268,80.22,85,100,29.39,SO,2022-05-22 19:22:22
Nantucket,41.2835,-70.0995,71.71,77,0,11.5,US,2022-05-22 19:22:23
Distrikt Brokopondo,4.75,-55.1667,78.82,84,100,3.44,SR,2022-05-22 19:22:23
Nadadores,27.05,-101.6,74.08,94,100,9.22,MX,2022-05-22 19:22:23
Nikolskoye,59.7035,30.7861,44.49,57,7,2.21,RU,2022-05-22 19:22:24
Yerbogachën,61.2767,108.0108,45.25,94,74,1.05,RU,2022-05-22 19:22:24
Miles City,46.4083,-105.8406,56.37,35,0,12.66,US,2022-05-22 19:22:25
Cherskiy,68.75,161.3,50.2,53,93,14.81,RU,2022-05-22 19:22:25
Auki,-8.7676,160.7034,77.0,88,22,3.89,SB,2022-05-22 19:22:25
Alofi,-19.0595,-169.9187,69.69,100,5,1.14,NU,2022-05-22 19:22:26
Corbélia,-24.7989,-53.3067,67.35,64,100,4.74,BR,2022-05-22 19:22:26
Kuybyshevo,47.8123,38.9073,52.54,88,46,9.98,RU,2022-05-22 19:22:26
Saldanha,-33.0117,17.9442,53.65,87,91,5.77,ZA,2022-05-22 19:22:27
Broome,42.2506,-75.833,83.66,65,75,10.36,US,2022-05-22 19:22:27
Richards Bay,-28.783,32.0377,64.0,89,100,18.03,ZA,2022-05-22 19:22:27
Hithadhoo,-0.6,73.0833,83.86,72,90,11.77,MV,2022-05-22 19:21:15
Gamba,-2.65,10.0,75.69,74,76,6.73,GA,2022-05-22 19:22:28
Shache,38.4167,77.2406,71.51,32,100,12.03,CN,2022-05-22 19:22:28
East London,-33.0153,27.9116,61.32,83,0,3.67,ZA,2022-05-22 19:19:04
Waingapu,-9.6567,120.2641,76.96,84,53,9.06,ID,2022-05-22 19:22:29
Ciudad Bolivar,8.1222,-63.5497,87.35,53,99,7.81,VE,2022-05-22 19:22:29
Faanui,-16.4833,-151.75,80.44,73,12,15.26,PF,2022-05-22 19:22:29
Luque,37.558,-4.2797,72.68,53,0,5.79,ES,2022-05-22 19:22:30
Kuching,1.55,110.3333,78.22,100,40,2.3,MY,2022-05-22 19:22:30
Tarakan,3.3,117.6333,77.5,90,100,8.61,ID,2022-05-22 19:22:31
Umluj,25.0213,37.2685,80.94,48,10,9.78,SA,2022-05-22 19:22:31
La Asuncion,11.0333,-63.8628,96.53,41,13,19.57,VE,2022-05-22 19:22:31
Thompson,55.7435,-97.8558,62.76,27,75,13.8,CA,2022-05-22 19:22:32
Askiz,53.1319,90.5264,67.03,46,100,3.02,RU,2022-05-22 19:22:32
Tuatapere,-46.1333,167.6833,43.93,84,65,7.61,NZ,2022-05-22 19:22:32
Ambilobe,-13.2,49.05,74.61,70,61,4.63,MG,2022-05-22 19:22:33
Kemijärvi,66.7131,27.4306,47.35,83,30,8.39,FI,2022-05-22 19:22:33
Novikovo,51.1537,37.8879,44.76,95,87,8.37,RU,2022-05-22 19:18:00
Bethel,41.3712,-73.414,93.18,53,0,5.75,US,2022-05-22 19:22:34
Griffith,41.5284,-87.4237,63.05,48,100,4.61,US,2022-05-22 19:22:34
Solnechnyy,50.7214,136.6319,34.34,88,85,2.08,RU,2022-05-22 19:22:35
Fairbanks,64.8378,-147.7164,64.36,30,40,3.44,US,2022-05-22 19:21:22
São João da Barra,-21.6403,-41.0511,75.29,66,20,9.75,BR,2022-05-22 19:22:35
Bundaberg,-24.85,152.35,63.21,98,100,1.01,AU,2022-05-22 19:22:35
Mabaruma,8.2,-59.7833,80.8,78,99,7.07,GY,2022-05-22 19:22:36
Coria,39.9879,-6.5377,72.45,61,75,2.08,ES,2022-05-22 19:19:57
Laas,46.6166,10.7002,72.48,90,100,5.79,IT,2022-05-22 19:22:36
Okha,53.5739,142.9478,31.39,93,100,10.74,RU,2022-05-22 19:22:37
Guerrero Negro,27.9769,-114.0611,67.8,57,0,14.58,MX,2022-05-22 19:18:11
Turukhansk,65.8167,87.9833,53.73,70,80,6.46,RU,2022-05-22 19:22:37
Slave Lake,55.2834,-114.769,55.38,41,0,4.61,CA,2022-05-22 19:22:37
Puerto Ayora,-0.7393,-90.3518,78.76,76,66,11.05,EC,2022-05-22 19:22:38
Honningsvåg,70.9821,25.9704,46.15,76,0,2.3,NO,2022-05-22 19:22:38
Belaya Gora,68.5333,146.4167,44.44,82,25,1.63,RU,2022-05-22 19:22:39
Leningradskiy,69.3833,178.4167,33.67,92,100,3.94,RU,2022-05-22 19:22:39
Geraldton,-28.7667,114.6,64.81,72,40,16.11,AU,2022-05-22 19:19:17
Arraial do Cabo,-22.9661,-42.0278,73.36,68,0,16.11,BR,2022-05-22 19:22:39
Kosh-Agach,50.0,88.6667,57.52,41,100,7.29,RU,2022-05-22 19:22:40
Seymchan,62.8833,152.4333,42.26,67,100,5.14,RU,2022-05-22 19:22:40
Mynay,48.5833,22.2833,59.86,66,62,9.98,UA,2022-05-22 19:22:41
Esim,4.8699,-2.2405,76.17,86,100,4.92,GH,2022-05-22 19:22:41
Tiksi,71.6872,128.8694,30.58,87,100,5.44,RU,2022-05-22 19:22:41
Lavrentiya,65.5833,-171.0,38.86,76,100,9.1,RU,2022-05-22 19:22:42
Nyurba,63.2842,118.3319,46.18,69,26,0.49,RU,2022-05-22 19:22:42
Esso,55.9333,158.7,36.28,98,80,3.67,RU,2022-05-22 19:22:42
Raton,36.9034,-104.4391,47.01,46,75,23.02,US,2022-05-22 19:22:43
Weston,26.1004,-80.3998,90.01,65,40,14.97,US,2022-05-22 19:19:51
Havelock,34.8791,-76.9013,82.96,83,100,10.36,US,2022-05-22 19:22:43
Maykop,44.6078,40.1058,51.28,79,5,0.51,RU,2022-05-22 19:22:44
Rocha,-34.4833,-54.3333,64.58,58,22,2.86,UY,2022-05-22 19:22:44
Port Hardy,50.6996,-127.4199,51.98,82,75,4.61,CA,2022-05-22 19:22:44
Butembo,0.15,29.2833,58.78,97,97,2.44,CD,2022-05-22 19:22:45
Haines Junction,60.7522,-137.5108,57.15,30,100,3.44,CA,2022-05-22 19:22:45
Bambous Virieux,-20.3428,57.7575,75.45,64,40,10.36,MU,2022-05-22 19:22:45
Nemuro,43.3236,145.575,45.23,98,100,11.92,JP,2022-05-22 19:22:46
Rognan,67.0953,15.3878,53.76,68,100,2.51,NO,2022-05-22 19:22:15
Coyhaique,-45.5752,-72.0662,39.81,81,75,10.36,CL,2022-05-22 19:22:46
Port-Cartier,50.0334,-66.8654,59.22,76,100,5.06,CA,2022-05-22 19:22:47
Soyo,-6.1349,12.3689,75.56,77,60,9.8,AO,2022-05-22 19:22:47
Shostka,51.863,33.4698,46.74,91,87,6.85,UA,2022-05-22 19:22:47
Huron,41.1501,-82.5499,64.69,80,100,7.34,US,2022-05-22 19:20:16
Caranavi,-15.8167,-67.55,70.14,67,98,3.42,BO,2022-05-22 19:22:48
Dawlatabad,36.4141,64.9053,65.12,28,0,6.29,AF,2022-05-22 19:22:48
Hong Kong,22.2855,114.1577,77.18,90,100,15.99,HK,2022-05-22 19:22:48
Vila Franca do Campo,37.7167,-25.4333,64.81,90,74,4.7,PT,2022-05-22 19:22:49
Sangar,63.9242,127.4739,37.33,96,62,1.45,RU,2022-05-22 19:22:49
Aklavik,68.2191,-135.0107,26.6,74,100,9.22,CA,2022-05-22 19:22:49
Port Lincoln,-34.7333,135.8667,61.61,78,100,10.04,AU,2022-05-22 19:22:50
Marabu,4.4148,114.0089,78.94,89,40,8.05,MY,2022-05-22 19:22:50
Port Blair,11.6667,92.75,82.96,81,100,21.79,IN,2022-05-22 19:22:50
North Bend,43.4065,-124.2243,68.23,87,0,8.05,US,2022-05-22 19:22:51
Adrar,20.5022,-10.0711,98.73,10,94,8.23,MR,2022-05-22 19:22:51
Yining,29.0361,114.5636,64.35,98,100,0.2,CN,2022-05-22 19:22:51
Ajdabiya,30.7554,20.2263,66.2,64,0,6.04,LY,2022-05-22 19:21:26
Port Macquarie,-31.4333,152.9167,55.89,85,100,3.89,AU,2022-05-22 19:22:52
Torbay,47.6666,-52.7314,62.28,39,100,13.8,CA,2022-05-22 19:22:53
Olafsvik,64.8945,-23.7142,45.55,64,1,11.9,IS,2022-05-22 19:22:53
Toma,12.7667,-2.8833,91.96,34,68,11.21,BF,2022-05-22 19:22:53
Pacifica,37.6138,-122.4869,81.14,69,20,14.97,US,2022-05-22 19:22:54
Santiago del Estero,-27.7951,-64.2615,78.28,28,0,11.97,AR,2022-05-22 19:20:19
Srednekolymsk,67.45,153.6833,50.56,51,99,9.69,RU,2022-05-22 19:22:54
Praia da Vitória,38.7333,-27.0667,66.45,94,75,5.26,PT,2022-05-22 19:22:54
Asău,46.4333,26.4,58.28,72,96,0.96,RO,2022-05-22 19:22:55
Emerald,-23.5333,148.1667,60.35,87,96,12.66,AU,2022-05-22 19:18:15
Port Hedland,-20.3167,118.5667,77.05,100,100,5.75,AU,2022-05-22 19:22:55
Atar,20.5169,-13.0499,103.87,8,98,1.66,MR,2022-05-22 19:22:57
Gonder,12.6,37.4667,66.88,56,18,5.39,ET,2022-05-22 19:22:57
Kigoma,-4.8769,29.6267,75.51,73,90,1.92,TZ,2022-05-22 19:22:57
Pareora,-44.4871,171.2132,40.17,78,3,6.91,NZ,2022-05-22 19:22:58
Valpoi,15.5305,74.1356,78.31,91,100,3.04,IN,2022-05-22 19:22:58
Sabang,5.8933,95.3214,83.68,77,100,21.85,ID,2022-05-22 19:22:59
Alyangula,-13.8483,136.4192,77.34,79,100,10.02,AU,2022-05-22 19:22:59
Ilulissat,69.2167,-51.1,35.62,87,75,4.61,GL,2022-05-22 19:23:00
Vilhena,-12.7406,-60.1458,84.42,42,40,6.91,BR,2022-05-22 19:23:00
Baracoa,20.3467,-74.4958,83.95,69,100,10.56,CU,2022-05-22 19:23:00
Bathsheba,13.2167,-59.5167,84.81,70,40,18.41,BB,2022-05-22 19:23:01
Dhārchula,29.85,80.5333,64.33,77,38,3.51,IN,2022-05-22 19:23:01
Birjand,32.8663,59.2211,66.67,20,1,6.91,IR,2022-05-22 19:23:01
Yangi Marg`ilon,40.4272,71.7189,54.32,82,40,0.0,UZ,2022-05-22 19:23:02
San Cristobal,7.7669,-72.225,82.58,41,1,8.05,VE,2022-05-22 19:23:02
Ballina,-28.8667,153.5667,58.78,83,30,11.79,AU,2022-05-22 19:23:03
Borogontsy,62.6683,131.1683,38.26,78,38,4.7,RU,2022-05-22 19:23:03
Tarancón,40.0085,-3.0073,68.95,50,0,14.61,ES,2022-05-22 19:23:04
Mahon,39.8885,4.2658,72.16,78,0,8.05,ES,2022-05-22 19:23:04
Marsh Harbour,26.5412,-77.0636,79.56,74,70,15.55,BS,2022-05-22 19:23:04
South Kazakhstan Region,43.0,68.0,62.35,45,6,10.65,KZ,2022-05-22 19:23:05
Yagodnoye,62.55,149.6667,33.57,90,100,0.94,RU,2022-05-22 19:23:05
Lorengau,-2.0226,147.2712,82.9,70,90,11.56,PG,2022-05-22 19:23:06
Bulanash,57.2783,61.9965,36.77,90,81,6.44,RU,2022-05-22 19:23:06
Shubarshi,48.5872,57.1869,56.41,70,100,19.86,KZ,2022-05-22 19:23:06
San Juan,-31.5375,-68.5364,76.37,15,30,5.82,AR,2022-05-22 19:21:06
Galesong,-5.3166,119.3661,75.22,81,48,4.14,ID,2022-05-22 19:23:07
Pando,-34.7167,-55.95,66.6,52,0,6.91,UY,2022-05-22 19:23:07
Tanhaçu,-14.0214,-41.2481,83.59,30,0,4.41,BR,2022-05-22 19:23:07
Aksu,41.1231,80.2644,76.62,25,100,7.9,CN,2022-05-22 19:23:08
Menongue,-14.6585,17.691,56.89,50,0,4.12,AO,2022-05-22 19:23:08
Tiznit Province,29.5833,-9.5,78.08,45,15,3.91,MA,2022-05-22 19:21:35
Nuuk,64.1835,-51.7216,34.41,93,100,32.21,GL,2022-05-22 19:23:09
Seoul,37.5683,126.9778,62.17,82,75,3.44,KR,2022-05-22 19:23:09
Gazojak,41.1875,61.4036,68.49,35,0,5.01,TM,2022-05-22 19:23:09
Clyde River,70.4692,-68.5914,21.43,86,100,34.52,CA,2022-05-22 19:23:10
Rio Grande,-32.035,-52.0986,68.11,67,0,6.93,BR,2022-05-22 19:23:10
Jonesboro,35.8423,-90.7043,64.22,72,100,9.22,US,2022-05-22 19:19:17
Río Gallegos,-51.6226,-69.2181,42.13,48,3,11.34,AR,2022-05-22 19:21:34
Atambua,-9.1061,124.8925,71.2,87,7,5.08,ID,2022-05-22 19:23:11
Usinsk,65.9939,57.5281,32.07,93,100,29.66,RU,2022-05-22 19:23:11
Isangel,-19.55,169.2667,75.47,85,70,6.85,VU,2022-05-22 19:23:12
Ancud,-41.8697,-73.8203,48.94,68,0,14.14,CL,2022-05-22 19:23:12
Lagoa,39.05,-27.9833,62.24,92,100,5.97,PT,2022-05-22 19:23:13
Atasū,48.6814,71.6433,46.18,49,0,2.86,KZ,2022-05-22 19:23:13
Colares,38.7992,-9.4469,65.88,81,75,25.01,PT,2022-05-22 19:18:38
Sharanga,57.1775,46.5396,30.96,90,83,6.58,RU,2022-05-22 19:23:14
Bonavista,48.6499,-53.1147,54.23,70,100,15.28,CA,2022-05-22 19:23:14
Kununurra,-15.7667,128.7333,58.98,82,93,0.0,AU,2022-05-22 19:23:14
Priyutnoye,46.1011,43.5072,57.27,85,69,8.5,RU,2022-05-22 19:23:15
Lüderitz,-26.6481,15.1594,58.19,69,24,7.27,NA,2022-05-22 19:23:15
Marsala,37.7966,12.4352,73.89,83,0,4.61,IT,2022-05-22 19:23:15
Viedma,-40.8135,-62.9967,58.64,35,100,13.31,AR,2022-05-22 19:23:16
Antalaha,-14.9003,50.2788,71.92,84,25,7.23,MG,2022-05-22 19:23:16
Safi,32.2994,-9.2372,68.72,73,100,21.14,MA,2022-05-22 19:23:16
Florina,40.782,21.4098,63.07,85,71,4.29,GR,2022-05-22 19:23:18
Assiut,27.181,31.1837,78.98,20,0,10.27,EG,2022-05-22 19:23:18
Volodarskiy,46.4013,48.5409,62.55,74,3,7.74,RU,2022-05-22 19:23:19
Amga,60.8953,131.9608,35.29,89,2,2.75,RU,2022-05-22 19:23:19
Twentynine Palms,34.1356,-116.0542,87.06,16,0,2.73,US,2022-05-22 19:23:20
Quesnel,52.9999,-122.5029,63.1,34,0,4.61,CA,2022-05-22 19:23:20
Salalah,17.0151,54.0924,84.29,84,75,6.91,OM,2022-05-22 19:21:02
Carlisle,40.2015,-77.1889,91.04,62,59,7.56,US,2022-05-22 19:22:57
Longyearbyen,78.2186,15.6401,35.44,87,75,5.75,SJ,2022-05-22 19:23:21
Maltahöhe,-24.8333,16.9833,54.54,46,19,7.18,NA,2022-05-22 19:23:21
Butaritari,3.0707,172.7902,81.34,79,59,10.8,KI,2022-05-22 19:23:21
Senekal,-28.3197,27.6208,51.22,68,5,3.27,ZA,2022-05-22 19:23:22
Lamar,33.6668,-95.5836,62.51,88,100,10.36,US,2022-05-22 19:23:22
Katsuura,35.1333,140.3,64.9,88,66,9.51,JP,2022-05-22 19:21:42
Maragogi,-9.0122,-35.2225,79.2,79,5,15.23,BR,2022-05-22 19:23:23
Amalāpuram,16.5833,82.0167,83.37,75,28,3.2,IN,2022-05-22 19:23:23
College,64.8569,-147.8028,64.35,29,40,9.22,US,2022-05-22 19:23:23
Khudumelapye,-23.8833,24.75,52.66,53,0,2.13,BW,2022-05-22 19:23:24
Khatanga,71.9667,102.5,31.82,93,100,6.78,RU,2022-05-22 19:23:24
Whangarei,-35.7317,174.3239,52.57,92,100,3.71,NZ,2022-05-22 19:23:25
Santiago de Cao,-7.9589,-79.2392,64.53,77,64,12.66,PE,2022-05-22 19:23:25
Maniitsoq,65.4167,-52.9,32.22,99,100,17.47,GL,2022-05-22 19:23:25
Kikwit,-5.041,18.8162,73.98,82,84,2.04,CD,2022-05-22 19:23:26
Grand-Santi,4.25,-54.3833,81.23,87,62,1.3,GF,2022-05-22 19:23:26
Novopokrovka,49.8425,36.5477,49.12,90,95,13.38,UA,2022-05-22 19:23:27
Kalabo,-14.97,22.6814,57.61,30,77,6.04,ZM,2022-05-22 19:23:27
Fort Nelson,58.8053,-122.7002,54.99,54,75,6.91,CA,2022-05-22 19:23:27
Meulaboh,4.1363,96.1285,78.08,87,100,2.1,ID,2022-05-22 19:23:28
Anuradhapura,8.3565,80.4173,78.76,85,73,13.65,LK,2022-05-22 19:23:28
Banda Aceh,5.5577,95.3222,81.0,79,100,13.56,ID,2022-05-22 19:23:28
Bud,39.447,-86.1758,67.82,54,100,12.24,US,2022-05-22 19:23:29
Ozinki,51.1786,49.6769,44.83,95,100,12.06,RU,2022-05-22 19:23:29
Pacific Grove,36.6177,-121.9166,69.22,80,20,10.36,US,2022-05-22 19:23:00
Zanjān,36.6736,48.4787,65.1,24,28,2.17,IR,2022-05-22 19:23:29
Malumfashi,11.7853,7.6218,88.11,20,61,6.44,NG,2022-05-22 19:23:30
Northam,51.0333,-4.2167,57.61,89,100,8.23,GB,2022-05-22 19:23:30
St. George's,12.0564,-61.7485,87.48,62,20,18.41,GD,2022-05-22 19:19:49
Mayo,38.8876,-76.5119,94.46,63,0,13.8,US,2022-05-22 19:23:31
Puerto Escondido,15.85,-97.0667,88.63,66,0,8.05,MX,2022-05-22 19:20:28
Ponta do Sol,32.6667,-17.1,72.01,79,14,2.06,PT,2022-05-22 19:23:31
Bestöbe,52.4994,73.0975,48.52,51,0,14.29,KZ,2022-05-22 19:23:31
Naze,28.3667,129.4833,65.32,72,100,2.8,JP,2022-05-22 19:23:32
Tubinskiy,52.8892,58.2225,35.44,93,91,5.39,RU,2022-05-22 19:23:32
Camacha,33.0833,-16.3333,65.62,64,20,11.5,PT,2022-05-22 19:23:33
Polson,47.6936,-114.1632,59.72,37,5,1.43,US,2022-05-22 19:23:33
Ransang,8.9603,117.5828,78.6,81,100,4.05,PH,2022-05-22 19:23:33
Aketi,2.7388,23.7833,73.89,83,94,3.33,CD,2022-05-22 19:23:34
Kailua,21.4022,-157.7394,80.15,71,100,9.22,US,2022-05-22 19:23:34
Martapura,-3.4167,114.85,77.09,100,100,1.14,ID,2022-05-22 19:23:35
Alice Springs,-23.7,133.8833,44.15,70,44,0.0,AU,2022-05-22 19:23:35
Araouane,18.9048,-3.5265,96.58,7,0,11.95,ML,2022-05-22 19:23:35
Severnyy,50.677,36.5532,44.64,87,0,4.47,RU,2022-05-22 19:23:36
Kruisfontein,-34.0033,24.7314,53.89,76,100,2.8,ZA,2022-05-22 19:22:09
Saint George,37.1041,-113.5841,85.78,11,0,3.44,US,2022-05-22 19:23:36
Wellington,-41.2866,174.7756,53.26,86,75,14.97,NZ,2022-05-22 19:19:27
Talnakh,69.4865,88.3972,33.21,100,100,2.08,RU,2022-05-22 19:23:37
La Orilla,17.9833,-102.2333,83.62,62,24,10.96,MX,2022-05-22 19:23:37
Waipawa,-41.4122,175.5153,49.53,75,95,11.34,NZ,2022-05-22 19:23:38
Lyubech,51.7026,30.6569,47.48,95,95,5.79,UA,2022-05-22 19:23:38
Misratah,32.3754,15.0925,71.08,53,0,9.66,LY,2022-05-22 19:20:13
Udachny,66.4167,112.4,48.45,52,10,2.1,RU,2022-05-22 19:23:38
Barra de Tecoanapa,16.5167,-98.75,85.1,58,0,10.56,MX,2022-05-22 19:23:40
Suşehri,40.1644,38.0867,58.28,69,79,3.36,TR,2022-05-22 19:23:40
Bahía Blanca,-38.7196,-62.2724,63.0,34,100,17.58,AR,2022-05-22 19:23:41
Nakamura,32.9833,132.9333,62.1,73,100,4.23,JP,2022-05-22 19:23:41
Tahe,52.3333,124.7333,45.43,91,100,11.34,CN,2022-05-22 19:23:42
Nador,35.174,-2.9287,78.87,50,0,14.97,MA,2022-05-22 19:23:06
Bilibino,68.0546,166.4372,43.16,70,79,3.89,RU,2022-05-22 19:23:42
Nālūt,30.3333,10.85,79.05,6,0,7.38,LY,2022-05-22 19:23:42
Flinders,-34.5833,150.8552,54.68,92,100,3.0,AU,2022-05-22 19:23:43
Yulara,-25.2406,130.9889,56.73,43,100,8.34,AU,2022-05-22 19:23:43
Sirpur,19.4833,79.6,94.06,20,0,4.5,IN,2022-05-22 19:23:44
Porto-Novo,6.4965,2.6036,80.42,85,100,6.02,BJ,2022-05-22 19:23:44
Necochea,-38.5473,-58.7368,60.98,47,100,12.91,AR,2022-05-22 19:23:45
Buraidah,26.326,43.975,95.45,8,1,16.67,SA,2022-05-22 19:22:49
Henties Bay,-22.116,14.2845,61.81,62,7,8.93,NA,2022-05-22 19:23:45
Sioux Lookout,50.1001,-91.917,53.67,30,75,6.91,CA,2022-05-22 19:23:46
Berdigestyakh,62.0989,126.6992,39.24,89,17,2.64,RU,2022-05-22 19:20:35
Totness,5.8833,-56.3167,78.87,85,100,5.14,SR,2022-05-22 19:23:46
Kaposvár,46.3667,17.8,60.67,71,24,5.19,HU,2022-05-22 19:23:46
Maxixe,-23.8597,35.3472,67.77,94,96,4.09,MZ,2022-05-22 19:23:47
Rongcheng,30.634,117.8517,68.0,82,100,1.86,CN,2022-05-22 19:23:47
Moroto,2.5345,34.6666,69.98,68,70,3.51,UG,2022-05-22 19:23:48
Pitsunda,43.1592,40.3378,59.18,61,0,5.82,GE,2022-05-22 19:23:48
Campo Formoso,-10.5075,-40.3214,79.59,45,11,11.23,BR,2022-05-22 19:23:48
Strezhevoy,60.7333,77.5889,64.44,62,80,17.81,RU,2022-05-22 19:23:49
Plettenberg Bay,-34.0527,23.3716,58.51,67,100,3.69,ZA,2022-05-22 19:23:49
Praia,14.9215,-23.5087,75.74,60,20,12.66,CV,2022-05-22 19:23:49
Bago,17.3367,96.4797,78.73,92,100,2.21,MM,2022-05-22 19:23:50
Lodja,-3.4833,23.4333,72.64,87,79,2.57,CD,2022-05-22 19:23:50
Angoche,-16.2325,39.9086,76.91,79,0,9.26,MZ,2022-05-22 19:23:50
Mandalī,33.7499,45.5541,89.64,9,0,6.38,IQ,2022-05-22 19:23:51
Ketchikan,55.3422,-131.6461,57.67,44,0,11.5,US,2022-05-22 19:23:51
Airai,-8.9266,125.4092,58.64,90,50,3.58,TL,2022-05-22 19:23:51
Boca do Acre,-8.7522,-67.3978,90.46,42,79,2.19,BR,2022-05-22 19:23:52
Boffa,10.1667,-14.0333,80.51,72,26,6.42,GN,2022-05-22 19:23:52
Nampula,-15.1165,39.2666,71.55,88,0,9.22,MZ,2022-05-22 19:23:52
Yeppoon,-23.1333,150.7333,65.98,88,100,10.56,AU,2022-05-22 19:23:53
Umm Kaddadah,13.6017,26.6876,85.5,15,100,8.84,SD,2022-05-22 19:23:32
Hatillo,18.4863,-66.8254,86.56,75,100,5.99,PR,2022-05-22 19:23:53
Evensk,61.95,159.2333,37.83,92,98,2.33,RU,2022-05-22 19:23:54
Lumphat,13.4878,106.9816,74.32,98,100,4.23,KH,2022-05-22 19:23:54
Kasama,-10.2129,31.1808,66.29,60,88,2.77,ZM,2022-05-22 19:23:55
Shiyan,32.6475,110.7781,61.7,87,0,2.95,CN,2022-05-22 19:23:55
Nānākuli,21.3906,-158.1547,80.11,64,100,9.22,US,2022-05-22 19:23:55
San Jose,37.3394,-121.895,83.91,46,20,10.36,US,2022-05-22 19:21:40
Sur,22.5667,59.5289,91.76,45,0,11.41,OM,2022-05-22 19:23:56
Moshi,-3.35,37.3333,69.19,73,69,1.3,TZ,2022-05-22 19:23:56
Saint-Pierre,-21.3393,55.4781,71.28,68,0,5.75,RE,2022-05-22 19:23:56
Acapulco de Juárez,16.8634,-99.8901,84.02,65,100,9.22,MX,2022-05-22 19:19:33
Khorixas,-20.3667,14.9667,63.68,17,1,12.64,NA,2022-05-22 19:23:57
Coracora,-15.0333,-73.7833,60.98,19,92,10.71,PE,2022-05-22 19:23:57
Pedersore,63.65,22.6833,50.47,68,100,7.87,FI,2022-05-22 19:23:58
Kavaratti,10.5669,72.642,83.64,80,91,18.21,IN,2022-05-22 19:23:58
Deputatsky,69.3,139.9,27.28,94,84,3.36,RU,2022-05-22 19:23:58
Vihti,60.417,24.3197,50.11,45,100,7.0,FI,2022-05-22 19:23:59
Ulaanbaatar,47.9077,106.8832,41.13,56,0,4.47,MN,2022-05-22 19:23:59
Laguna,38.421,-121.4238,87.06,26,0,5.75,US,2022-05-22 19:20:28
Batagay-Alyta,67.8006,130.4114,31.01,89,98,3.53,RU,2022-05-22 19:24:00
Tres Arroyos,-38.3739,-60.2798,61.9,37,100,14.47,AR,2022-05-22 19:24:00
Ozerki,57.6167,39.8833,41.02,56,0,6.71,RU,2022-05-22 19:24:00
Roald,62.5833,6.1333,60.17,93,75,3.44,NO,2022-05-22 19:24:02
San Andrés,12.5847,-81.7006,87.82,74,100,13.8,CO,2022-05-22 19:24:02
Powell,40.1578,-83.0752,67.8,68,75,11.5,US,2022-05-22 19:23:41
Ippy,6.2679,21.2247,76.23,66,25,3.11,CF,2022-05-22 19:24:03
Ostrovnoy,68.0531,39.5131,30.67,81,18,10.02,RU,2022-05-22 19:24:03
Baiyin,36.5583,104.2081,64.6,53,96,4.94,CN,2022-05-22 19:24:04
Nanlong,31.3533,106.0631,67.01,83,0,2.8,CN,2022-05-22 19:24:04
Matagami,49.7502,-77.6328,42.91,70,100,6.91,CA,2022-05-22 19:24:04
Doha,25.2867,51.5333,93.18,19,0,13.8,QA,2022-05-22 19:22:38
Yinchuan,38.4681,106.2731,64.29,48,14,5.59,CN,2022-05-22 19:24:05
Hernani,43.2662,-1.9762,65.8,83,100,17.27,ES,2022-05-22 19:24:05
Dingle,10.9995,122.6711,77.2,88,100,4.23,PH,2022-05-22 19:24:06
Rūdbār,30.15,62.6,74.37,18,0,21.21,AF,2022-05-22 19:24:06
Grajewo,53.6473,22.4554,48.4,97,100,8.28,PL,2022-05-22 19:24:06
Kurumkan,54.3,110.3,44.65,81,3,3.58,RU,2022-05-22 19:24:07
Medina del Campo,41.3124,-4.9141,66.7,57,99,16.71,ES,2022-05-22 19:24:07
Tālcher,20.95,85.2167,84.61,53,24,11.45,IN,2022-05-22 19:24:07
Jilib,0.4883,42.7854,79.3,79,100,12.35,SO,2022-05-22 19:24:08
Nayoro,44.3506,142.4578,52.11,96,91,2.57,JP,2022-05-22 19:24:08
Kloulklubed,7.0419,134.2556,83.68,75,100,7.96,PW,2022-05-22 19:24:08
Machinga,-15.1685,35.3,67.48,64,94,1.88,MW,2022-05-22 19:21:16
Avera,33.194,-82.5271,90.37,36,100,11.54,US,2022-05-22 19:24:09
Helong,42.5397,128.9972,50.95,61,7,4.5,CN,2022-05-22 19:24:09
Taoudenni,22.6783,-3.9836,97.81,8,0,10.27,ML,2022-05-22 19:24:10
Pevek,69.7008,170.3133,34.65,89,89,11.32,RU,2022-05-22 19:24:10
Clevelândia,-26.3958,-52.4708,59.92,68,99,4.14,BR,2022-05-22 19:24:10
Goderich,43.7501,-81.7165,46.72,87,100,9.22,CA,2022-05-22 19:22:05
Vestmannaeyjar,63.4427,-20.2734,51.84,73,5,3.36,IS,2022-05-22 19:24:11
Guadalupe,25.6833,-100.25,88.63,53,75,13.8,MX,2022-05-22 19:19:42
Garden City,42.3256,-83.331,68.25,59,100,11.5,US,2022-05-22 19:24:11
Ilhabela,-23.7781,-45.3581,70.32,70,4,4.18,BR,2022-05-22 19:23:30
Anadyr,64.75,177.4833,45.1,70,0,8.95,RU,2022-05-22 19:24:12
Sørland,67.667,12.6934,46.26,92,100,8.03,NO,2022-05-22 19:24:12
Williston,48.147,-103.618,59.04,30,100,3.0,US,2022-05-22 19:12:01
Bantogon,6.5333,124.0333,78.1,79,100,3.33,PH,2022-05-22 19:24:13
Maningrida,-12.0667,134.2667,71.19,91,89,7.65,AU,2022-05-22 19:24:13
Ginda,30.6945,78.4932,55.62,66,0,6.22,IN,2022-05-22 19:24:14
Narutochō-mitsuishi,34.1833,134.6167,66.18,82,20,5.75,JP,2022-05-22 19:24:14
Kiama,-34.6833,150.8667,54.88,93,100,1.99,AU,2022-05-22 19:24:14
Trail,49.0998,-117.7022,66.69,46,72,1.99,CA,2022-05-22 19:24:15
Bodden Town,19.2833,-81.25,86.94,77,20,10.36,KY,2022-05-22 19:24:15
Ponta Delgada,37.7333,-25.6667,65.12,100,100,9.22,PT,2022-05-22 19:24:15
Youhao,47.8667,128.8333,51.58,60,100,4.12,CN,2022-05-22 19:24:16
Adré,13.4667,22.2,88.14,13,60,15.01,TD,2022-05-22 19:24:16
Hamilton,39.1834,-84.5333,68.09,72,100,9.22,US,2022-05-22 19:24:03
Mae Hong Son,19.3003,97.9685,72.39,98,18,1.48,TH,2022-05-22 19:24:17
Portland,45.5234,-122.6762,72.37,49,75,8.05,US,2022-05-22 19:18:10
Merauke,-8.4667,140.3333,79.02,84,27,11.72,ID,2022-05-22 19:24:17
Arlit,18.7369,7.3853,94.44,13,100,7.58,NE,2022-05-22 19:24:18
Marawi,7.9986,124.2928,69.49,94,100,3.87,PH,2022-05-22 19:24:18
Itarema,-2.9248,-39.9167,81.79,81,61,8.01,BR,2022-05-22 19:24:18
Bengkulu,-3.8004,102.2655,76.19,90,28,3.78,ID,2022-05-22 19:24:19
Anloga,5.7947,0.8973,79.47,78,74,6.24,GH,2022-05-22 19:24:19
Zhoucheng,35.9122,116.3117,66.11,48,88,5.86,CN,2022-05-22 19:24:20
Waddān,29.1614,16.139,79.21,10,0,6.91,LY,2022-05-22 19:24:20
Mbandaka,0.0487,18.2603,73.18,95,100,1.34,CD,2022-05-22 19:24:20
Pereira Barreto,-20.6383,-51.1092,77.76,27,3,3.2,BR,2022-05-22 19:24:21
Chinandega,12.6294,-87.1311,80.44,74,100,2.1,NI,2022-05-22 19:24:21
Khani,41.9563,42.9566,56.77,59,99,6.29,GE,2022-05-22 19:24:22
Klamath Falls,42.2249,-121.7817,62.87,31,0,6.91,US,2022-05-22 19:22:01
Ugoofaaru,5.6667,73.0,83.19,78,51,13.96,MV,2022-05-22 19:21:15
Verkhoyansk,67.5447,133.385,41.65,81,27,2.73,RU,2022-05-22 19:24:22
Manzhouli,49.6,117.4333,54.52,54,100,8.19,CN,2022-05-22 19:24:23
Barcelos,41.5388,-8.6151,67.84,85,65,6.13,PT,2022-05-22 19:24:23
Jieshi,22.8134,115.8257,72.81,89,100,13.49,CN,2022-05-22 19:24:24
Narsaq,60.9167,-46.05,39.42,99,100,5.66,GL,2022-05-22 19:24:24
Malakal,9.5334,31.6605,84.6,53,100,6.85,SS,2022-05-22 19:24:26
Pontianak,-0.0333,109.3333,78.78,94,100,1.14,ID,2022-05-22 19:24:26
Maceió,-9.6658,-35.7353,81.84,65,75,9.22,BR,2022-05-22 19:24:27
Sar-e Pul,35.8333,66.1667,45.48,78,24,2.06,AF,2022-05-22 19:24:27
Solano,38.2333,-121.9511,88.12,24,0,11.5,US,2022-05-22 19:24:28
Winnemucca,40.973,-117.7357,64.45,25,0,6.91,US,2022-05-22 19:24:28
Bilma,18.6853,12.9164,92.05,9,95,6.51,NE,2022-05-22 19:24:28
Mount Gambier,-37.8333,140.7667,35.51,100,100,4.61,AU,2022-05-22 19:24:29
Roebourne,-20.7833,117.1333,78.21,75,100,4.68,AU,2022-05-22 19:24:29
Nuevo Progreso,23.1667,-97.95,89.89,56,0,15.01,MX,2022-05-22 19:24:29
Chui,-33.6971,-53.4616,63.21,57,39,4.88,UY,2022-05-22 19:24:30
Hermagor,46.6272,13.3672,61.7,95,67,1.74,AT,2022-05-22 19:24:30
Varadero,23.1536,-81.2514,88.56,71,47,21.36,CU,2022-05-22 19:24:31
Saint Anthony,45.0205,-93.218,57.88,39,75,18.41,US,2022-05-22 19:24:31
Shuangcheng,45.35,126.2833,58.68,47,78,9.64,CN,2022-05-22 19:24:31
Departamento de Maldonado,-34.6667,-54.9167,65.23,52,43,2.06,UY,2022-05-22 19:24:17
Burns Lake,54.2331,-125.7533,62.02,28,0,6.62,CA,2022-05-22 19:24:32
Polewali,-3.4324,119.3435,76.57,89,100,3.02,ID,2022-05-22 19:24:32
Potam,27.6,-110.3833,91.04,22,35,13.2,MX,2022-05-22 19:24:33
Hasaki,35.7333,140.8333,57.6,83,100,6.31,JP,2022-05-22 19:24:33
Ribas do Rio Pardo,-20.4431,-53.7592,78.62,25,6,2.17,BR,2022-05-22 19:24:33
Lugovoy,42.9472,72.7644,49.23,81,100,4.07,KZ,2022-05-22 19:24:34
Khanbari,27.3747,87.2039,67.08,81,100,3.22,NP,2022-05-22 19:24:34
Eureka,40.8021,-124.1637,74.75,74,96,5.99,US,2022-05-22 19:24:35
Jumla,29.2747,82.1838,48.52,94,76,2.64,NP,2022-05-22 19:24:35
Presque Isle,46.6811,-68.0159,72.03,85,100,10.36,US,2022-05-22 19:24:35
Biak,-0.9131,122.8766,76.01,83,98,5.82,ID,2022-05-22 19:24:36
Talcahuano,-36.7167,-73.1167,55.08,94,100,9.22,CL,2022-05-22 19:24:36
Bosobolo,4.1833,19.9,74.55,77,88,1.68,CD,2022-05-22 19:24:36
Fiditi,7.7136,3.9172,79.75,95,97,4.63,NG,2022-05-22 19:24:37
Provideniya,64.3833,-173.3,49.15,43,100,10.78,RU,2022-05-22 19:24:37
General Roca,-39.0333,-67.5833,63.09,34,100,27.81,AR,2022-05-22 19:24:38
Conde,-7.2597,-34.9075,78.26,89,75,10.36,BR,2022-05-22 19:24:38
Zarichne,51.8126,26.129,48.9,94,100,6.22,UA,2022-05-22 19:24:38
Cap Malheureux,-19.9842,57.6142,72.46,76,6,3.0,MU,2022-05-22 19:24:39
Songea,-10.6833,35.65,61.25,74,7,1.39,TZ,2022-05-22 19:24:39
Christchurch,-43.5333,172.6333,38.95,89,8,2.3,NZ,2022-05-22 19:24:39
Batemans Bay,-35.7167,150.1833,55.09,87,81,5.53,AU,2022-05-22 19:22:10
Skibbereen,51.55,-9.2667,55.11,86,11,13.94,IE,2022-05-22 19:24:40
Āsbe Teferī,9.0833,40.8667,68.83,27,6,3.47,ET,2022-05-22 19:24:40
Coquimbo,-29.9533,-71.3436,62.33,72,0,8.05,CL,2022-05-22 19:24:41
Navoiy,40.0844,65.3792,58.48,67,3,4.61,UZ,2022-05-22 19:24:41
Buala,-8.145,159.5921,79.77,80,7,5.59,SB,2022-05-22 19:24:41
Betioky,-23.7167,44.3833,68.11,51,0,5.61,MG,2022-05-22 19:24:42
Lethem,3.3803,-59.7968,72.82,95,100,2.17,GY,2022-05-22 19:24:42
Mineiros,-17.5694,-52.5511,76.57,28,4,3.42,BR,2022-05-22 19:24:43
Te Anau,-45.4167,167.7167,36.86,91,14,0.67,NZ,2022-05-22 19:24:43
Kabompo,-13.5927,24.2008,59.14,54,20,6.04,ZM,2022-05-22 19:24:43
Samdrup Jongkhar District,26.9167,91.6167,66.15,88,100,4.23,BT,2022-05-22 19:24:44
Rehoboth,-23.3167,17.0833,53.26,47,6,6.64,NA,2022-05-22 19:24:44
Lahat,-3.8,103.5333,72.99,97,92,2.21,ID,2022-05-22 19:24:45
Bereda,43.2686,-7.5406,62.42,99,100,3.04,ES,2022-05-22 19:24:45
Makkah al Mukarramah,21.4267,39.8261,87.46,36,0,4.92,SA,2022-05-22 19:22:19
Ranong,9.9658,98.6348,80.94,84,100,14.83,TH,2022-05-22 19:24:45
Altay,47.8667,88.1167,65.48,28,81,6.53,CN,2022-05-22 19:24:46
Nouadhibou,20.931,-17.0347,67.98,77,1,20.71,MR,2022-05-22 19:24:46
Flin Flon,54.7682,-101.865,64.24,19,75,16.11,CA,2022-05-22 19:24:47
Kautokeino,69.0125,23.0412,35.82,97,100,2.93,NO,2022-05-22 19:24:47
Inhambane,-23.865,35.3833,68.43,92,96,4.32,MZ,2022-05-22 19:24:48
Moranbah,-22.0016,148.0466,63.25,82,100,13.89,AU,2022-05-22 19:24:48
Poum,-20.2333,164.0167,78.33,79,0,11.18,NC,2022-05-22 19:24:48
Pāsighāt,28.0667,95.3333,72.36,91,98,3.31,IN,2022-05-22 19:24:49
Samarina,57.8878,27.8054,49.89,52,18,9.46,RU,2022-05-22 19:24:49
Sistranda,63.7256,8.834,57.16,83,100,14.56,NO,2022-05-22 19:24:49
Krasnyy Yar,46.5331,48.3456,62.53,71,4,6.85,RU,2022-05-22 19:24:50
Athabasca,54.7169,-113.2854,64.81,33,100,8.39,CA,2022-05-22 19:24:50
Westerland,54.9079,8.3033,55.94,82,0,3.44,DE,2022-05-22 19:24:50
Porto Walter,-8.2686,-72.7439,88.52,47,59,3.18,BR,2022-05-22 19:24:51
Tual,-5.6667,132.75,83.1,76,63,14.0,ID,2022-05-22 19:24:51
Najrān,17.4924,44.1277,81.25,11,0,4.23,SA,2022-05-22 19:24:51
Udangudi,8.4333,78.0167,81.32,75,14,11.21,IN,2022-05-22 19:24:52
Mount Isa,-20.7333,139.5,58.77,82,0,3.44,AU,2022-05-22 19:24:52
Ambon City,-3.6954,128.1814,75.34,94,40,3.44,ID,2022-05-22 19:24:53
Vangaži,57.0936,24.5486,51.64,64,100,6.2,LV,2022-05-22 19:24:53
Sydney,-33.8679,151.2073,55.76,82,75,9.22,AU,2022-05-22 19:24:53
Channel-Port aux Basques,47.5702,-59.1367,49.01,91,100,13.04,CA,2022-05-22 19:24:54
Magdalena,14.1999,121.429,78.35,93,99,0.36,PH,2022-05-22 19:24:54
Awjilah,29.1081,21.2869,77.0,22,0,10.67,LY,2022-05-22 19:24:55
Kvitok,56.0724,98.4813,45.72,73,81,3.69,RU,2022-05-22 19:24:55
